[
  {"id":1,"name":"Bir Mourad Rais","name_ar":"بير مراد رايس","lat":36.7356,"lng":3.0490,"sequence":1,"route_id":4,"is_terminal":true},
  {"id":2,"name":"Les Fusilles","name_ar":"المحكومون","lat":36.7381,"lng":3.0528,"sequence":2,"route_id":4,"is_terminal":false},
  {"id":3,"name":"Dergana","name_ar":"درقانة","lat":36.7401,"lng":3.0569,"sequence":3,"route_id":4,"is_terminal":false},
  {"id":4,"name":"Bab Ezzouar","name_ar":"باب الزوار","lat":36.7424,"lng":3.0611,"sequence":4,"route_id":4,"is_terminal":false},
  {"id":5,"name":"Ruisseau","name_ar":"الواد الروشا","lat":36.7449,"lng":3.0652,"sequence":5,"route_id":4,"is_terminal":false},
  {"id":6,"name":"Ain Naadja","name_ar":"عين نعجة","lat":36.7475,"lng":3.0695,"sequence":6,"route_id":4,"is_terminal":false},
  {"id":7,"name":"Caroubier","name_ar":"الخروبة","lat":36.7501,"lng":3.0738,"sequence":7,"route_id":4,"is_terminal":false},
  {"id":8,"name":"Oued Ouchayah","name_ar":"وادي أوشايا","lat":36.7529,"lng":3.0782,"sequence":8,"route_id":4,"is_terminal":false},
  {"id":9,"name":"Soustara","name_ar":"سوسترا","lat":36.7558,"lng":3.0826,"sequence":9,"route_id":4,"is_terminal":false},
  {"id":10,"name":"Les Ateliers","name_ar":"الورشات","lat":36.7587,"lng":3.0869,"sequence":10,"route_id":4,"is_terminal":false},
  {"id":11,"name":"La Glaciere","name_ar":"الثلاجة","lat":36.7613,"lng":3.0911,"sequence":11,"route_id":4,"is_terminal":false},
  {"id":12,"name":"Belouizdad","name_ar":"بلوزداد","lat":36.7638,"lng":3.0953,"sequence":12,"route_id":4,"is_terminal":false},
  {"id":13,"name":"Sidi M'hamed","name_ar":"سيدي محمد","lat":36.7664,"lng":3.0996,"sequence":13,"route_id":4,"is_terminal":false},
  {"id":14,"name":"Khelifa Boukhalfa","name_ar":"خليفة بوخلفة","lat":36.7689,"lng":3.1038,"sequence":14,"route_id":4,"is_terminal":false},
  {"id":15,"name":"Place des Martyrs","name_ar":"ساحة الشهداء","lat":36.7715,"lng":3.1080,"sequence":15,"route_id":4,"is_terminal":false},
  {"id":16,"name":"Tafourah Grande Poste","name_ar":"تافورة","lat":36.7741,"lng":3.1122,"sequence":16,"route_id":4,"is_terminal":false},
  {"id":17,"name":"Ain Beida","name_ar":"عين بيضاء","lat":36.7766,"lng":3.1165,"sequence":17,"route_id":4,"is_terminal":false},
  {"id":18,"name":"Hamma","name_ar":"الحامة","lat":36.7792,"lng":3.1207,"sequence":18,"route_id":4,"is_terminal":false},
  {"id":19,"name":"Ahmed Francis","name_ar":"أحمد فرانسيس","lat":36.7818,"lng":3.1250,"sequence":19,"route_id":4,"is_terminal":false},
  {"id":20,"name":"El Mohammadia","name_ar":"المحمدية","lat":36.7843,"lng":3.1292,"sequence":20,"route_id":4,"is_terminal":false},
  {"id":21,"name":"Aissat Idir","name_ar":"عيسات إيدير","lat":36.7869,"lng":3.1334,"sequence":21,"route_id":4,"is_terminal":false},
  {"id":22,"name":"Mer et Soleil","name_ar":"بحر وشمس","lat":36.7894,"lng":3.1377,"sequence":22,"route_id":4,"is_terminal":false},
  {"id":23,"name":"Oued El Had","name_ar":"وادي الحد","lat":36.7920,"lng":3.1419,"sequence":23,"route_id":4,"is_terminal":false},
  {"id":24,"name":"Caroubier Deux","name_ar":"الخروبة 2","lat":36.7945,"lng":3.1461,"sequence":24,"route_id":4,"is_terminal":false},
  {"id":25,"name":"Maqam Echahid","name_ar":"مقام الشهيد","lat":36.7971,"lng":3.1504,"sequence":25,"route_id":4,"is_terminal":false},
  {"id":26,"name":"Le Marche","name_ar":"السوق","lat":36.7996,"lng":3.1546,"sequence":26,"route_id":4,"is_terminal":false},
  {"id":27,"name":"Garidi","name_ar":"قريدي","lat":36.8022,"lng":3.1588,"sequence":27,"route_id":4,"is_terminal":false},
  {"id":28,"name":"Cinq Maison","name_ar":"خمسة بيوت","lat":36.8047,"lng":3.1631,"sequence":28,"route_id":4,"is_terminal":false},
  {"id":29,"name":"Bachdjerrah","name_ar":"باش جراح","lat":36.8073,"lng":3.1673,"sequence":29,"route_id":4,"is_terminal":false},
  {"id":30,"name":"Bab Ezzouar Deux","name_ar":"باب الزوار 2","lat":36.8098,"lng":3.1715,"sequence":30,"route_id":4,"is_terminal":false},
  {"id":31,"name":"Birtouta","name_ar":"بئر توتة","lat":36.8124,"lng":3.1758,"sequence":31,"route_id":4,"is_terminal":false},
  {"id":32,"name":"El Harrach Centre","name_ar":"الحراش المركز","lat":36.8149,"lng":3.1800,"sequence":32,"route_id":4,"is_terminal":true}
]